{
  "breweries": [
    {
      "id": "6948c755-a504-42f9-88e8-d04d027731e5",
      "name": "2 Row Brewing",
      "brewery_type": "micro",
      "address_1": "6856 S 300 W",
      "address_2": null,
      "address_3": null,
      "city": "Midvale",
      "state_province": "Utah",
      "postal_code": "84047-1083",
      "country": "United States",
      "longitude": "-111.9007652",
      "latitude": "40.5950202",
      "phone": "8019878663",
      "website_url": "http://www.2rowbrewing.com",
      "state": "Utah",
      "street": "6856 S 300 W"
    },
    {
      "id": "957afb07-a6ff-4ba3-9288-820bf0e7b107",
      "name": "Bewilder Brewing Co",
      "brewery_type": "brewpub",
      "address_1": "445 S 400 W",
      "address_2": null,
      "address_3": null,
      "city": "Salt Lake City",
      "state_province": "Utah",
      "postal_code": "84101-2202",
      "country": "United States",
      "longitude": "-111.9017072",
      "latitude": "40.7594039",
      "phone": "3855283840",
      "website_url": "https://bewilderbrewing.com",
      "state": "Utah",
      "street": "445 S 400 W"
    },
    {
      "id": "dddce31e-3831-4366-ac7f-da653e730d2c",
      "name": "Bohemian Brewery and Grill",
      "brewery_type": "micro",
      "address_1": "94 7200 S",
      "address_2": null,
      "address_3": null,
      "city": "Midvale",
      "state_province": "Utah",
      "postal_code": "84047-1532",
      "country": "United States",
      "longitude": "-111.894011",
      "latitude": "40.6206923",
      "phone": "8015665474",
      "website_url": "http://www.bohemianbrewery.com",
      "state": "Utah",
      "street": "94 7200 S"
    },
    {
      "id": "66ab4fe9-46a6-480c-ba0e-d9044e233017",
      "name": "Bonneville Brewery",
      "brewery_type": "micro",
      "address_1": "1641 N Main St",
      "address_2": null,
      "address_3": null,
      "city": "Tooele",
      "state_province": "Utah",
      "postal_code": "84074-8023",
      "country": "United States",
      "longitude": "-112.2978178",
      "latitude": "40.55980233",
      "phone": "4352480652",
      "website_url": null,
      "state": "Utah",
      "street": "1641 N Main St"
    },
    {
      "id": "4748474e-0161-45c5-916b-0e69e5950a3f",
      "name": "Epic Brewing Co., LLC",
      "brewery_type": "micro",
      "address_1": "825 S State St",
      "address_2": null,
      "address_3": null,
      "city": "Salt Lake City",
      "state_province": "Utah",
      "postal_code": "84111-4207",
      "country": "United States",
      "longitude": "-111.887825",
      "latitude": "40.7511406",
      "phone": "8019060123",
      "website_url": "http://www.epicbrewing.com",
      "state": "Utah",
      "street": "825 S State St"
    },
    {
      "id": "76da7caa-4120-4920-aff5-e85cbf15fbac",
      "name": "Grid City Beer Works",
      "brewery_type": "brewpub",
      "address_1": "333 W 2100 S",
      "address_2": null,
      "address_3": null,
      "city": "Salt Lake City",
      "state_province": "Utah",
      "postal_code": "84115-1825",
      "country": "United States",
      "longitude": "-111.9008077",
      "latitude": "40.7250681",
      "phone": "8019068390",
      "website_url": "http://www.gridcitybeerworks.com",
      "state": "Utah",
      "street": "333 W 2100 S"
    },
    {
      "id": "b014d168-6455-4325-9e1c-7b212daf49ef",
      "name": "Fisher Brewing Company",
      "brewery_type": "micro",
      "address_1": "320 W 800 S",
      "address_2": null,
      "address_3": null,
      "city": "Salt Lake City",
      "state_province": "Utah",
      "postal_code": "84101-2610",
      "country": "United States",
      "longitude": "-111.8817247",
      "latitude": "40.75187347",
      "phone": "8014872337",
      "website_url": "http://www.fisherbeer.com",
      "state": "Utah",
      "street": "320 W 800 S"
    }
  ]
}